{
   "results" : [
      {
         "address_components" : [
            {
               "long_name" : "Building 410",
               "short_name" : "Building 410",
               "types" : [ "premise" ]
            },
            {
               "long_name" : "41011-41028",
               "short_name" : "41011-41028",
               "types" : [ "street_number" ]
            },
            {
               "long_name" : "Arroyo Drive",
               "short_name" : "Arroyo Dr",
               "types" : [ "route" ]
            },
            {
               "long_name" : "Irvine",
               "short_name" : "Irvine",
               "types" : [ "locality", "political" ]
            },
            {
               "long_name" : "Orange County",
               "short_name" : "Orange County",
               "types" : [ "administrative_area_level_2", "political" ]
            },
            {
               "long_name" : "California",
               "short_name" : "CA",
               "types" : [ "administrative_area_level_1", "political" ]
            },
            {
               "long_name" : "United States",
               "short_name" : "US",
               "types" : [ "country", "political" ]
            },
            {
               "long_name" : "92617",
               "short_name" : "92617",
               "types" : [ "postal_code" ]
            }
         ],
         "formatted_address" : "Building 410, 41011-41028 Arroyo Dr, Irvine, CA 92617, USA",
         "geometry" : {
            "bounds" : {
               "northeast" : {
                  "lat" : 33.643157,
                  "lng" : -117.8226254
               },
               "southwest" : {
                  "lat" : 33.6428636,
                  "lng" : -117.8231123
               }
            },
            "location" : {
               "lat" : 33.643009,
               "lng" : -117.8228629
            },
            "location_type" : "ROOFTOP",
            "viewport" : {
               "northeast" : {
                  "lat" : 33.6443592802915,
                  "lng" : -117.8215198697085
               },
               "southwest" : {
                  "lat" : 33.6416613197085,
                  "lng" : -117.8242178302915
               }
            }
         },
         "place_id" : "ChIJ78Lkzvvd3IARBJ_ZiYT7Gp0",
         "types" : [ "premise" ]
      },
      {
         "address_components" : [
            {
               "long_name" : "410",
               "short_name" : "410",
               "types" : [ "street_number" ]
            },
            {
               "long_name" : "Vista Del Campo Road",
               "short_name" : "Vista Del Campo Rd",
               "types" : [ "route" ]
            },
            {
               "long_name" : "Irvine",
               "short_name" : "Irvine",
               "types" : [ "locality", "political" ]
            },
            {
               "long_name" : "Orange County",
               "short_name" : "Orange County",
               "types" : [ "administrative_area_level_2", "political" ]
            },
            {
               "long_name" : "California",
               "short_name" : "CA",
               "types" : [ "administrative_area_level_1", "political" ]
            },
            {
               "long_name" : "United States",
               "short_name" : "US",
               "types" : [ "country", "political" ]
            },
            {
               "long_name" : "92617",
               "short_name" : "92617",
               "types" : [ "postal_code" ]
            }
         ],
         "formatted_address" : "410 Vista Del Campo Rd, Irvine, CA 92617, USA",
         "geometry" : {
            "location" : {
               "lat" : 33.6429681,
               "lng" : -117.8229615
            },
            "location_type" : "ROOFTOP",
            "viewport" : {
               "northeast" : {
                  "lat" : 33.64431708029149,
                  "lng" : -117.8216125197085
               },
               "southwest" : {
                  "lat" : 33.6416191197085,
                  "lng" : -117.8243104802915
               }
            }
         },
         "place_id" : "ChIJz9gRz_vd3IARka658FL3a3Q",
         "types" : [ "street_address" ]
      },
      {
         "address_components" : [
            {
               "long_name" : "Irvine",
               "short_name" : "Irvine",
               "types" : [ "locality", "political" ]
            },
            {
               "long_name" : "Orange County",
               "short_name" : "Orange County",
               "types" : [ "administrative_area_level_2", "political" ]
            },
            {
               "long_name" : "California",
               "short_name" : "CA",
               "types" : [ "administrative_area_level_1", "political" ]
            },
            {
               "long_name" : "United States",
               "short_name" : "US",
               "types" : [ "country", "political" ]
            }
         ],
         "formatted_address" : "Irvine, CA, USA",
         "geometry" : {
            "bounds" : {
               "northeast" : {
                  "lat" : 33.7736521,
                  "lng" : -117.6780258
               },
               "southwest" : {
                  "lat" : 33.5993914,
                  "lng" : -117.8687519
               }
            },
            "location" : {
               "lat" : 33.6845673,
               "lng" : -117.8265049
            },
            "location_type" : "APPROXIMATE",
            "viewport" : {
               "northeast" : {
                  "lat" : 33.7736521,
                  "lng" : -117.6780258
               },
               "southwest" : {
                  "lat" : 33.5993914,
                  "lng" : -117.8687519
               }
            }
         },
         "place_id" : "ChIJ40CRaA7d3IAROZpKYHW1eqc",
         "types" : [ "locality", "political" ]
      },
      {
         "address_components" : [
            {
               "long_name" : "92617",
               "short_name" : "92617",
               "types" : [ "postal_code" ]
            },
            {
               "long_name" : "Irvine",
               "short_name" : "Irvine",
               "types" : [ "locality", "political" ]
            },
            {
               "long_name" : "Orange County",
               "short_name" : "Orange County",
               "types" : [ "administrative_area_level_2", "political" ]
            },
            {
               "long_name" : "California",
               "short_name" : "CA",
               "types" : [ "administrative_area_level_1", "political" ]
            },
            {
               "long_name" : "United States",
               "short_name" : "US",
               "types" : [ "country", "political" ]
            }
         ],
         "formatted_address" : "Irvine, CA 92617, USA",
         "geometry" : {
            "bounds" : {
               "northeast" : {
                  "lat" : 33.65499,
                  "lng" : -117.821567
               },
               "southwest" : {
                  "lat" : 33.63091,
                  "lng" : -117.861187
               }
            },
            "location" : {
               "lat" : 33.6387024,
               "lng" : -117.8370041
            },
            "location_type" : "APPROXIMATE",
            "viewport" : {
               "northeast" : {
                  "lat" : 33.65499,
                  "lng" : -117.821567
               },
               "southwest" : {
                  "lat" : 33.63091,
                  "lng" : -117.861187
               }
            }
         },
         "place_id" : "ChIJEUL2kg_e3IARaDSFK2QFTHE",
         "types" : [ "postal_code" ]
      },
      {
         "address_components" : [
            {
               "long_name" : "Orange County",
               "short_name" : "Orange County",
               "types" : [ "administrative_area_level_2", "political" ]
            },
            {
               "long_name" : "California",
               "short_name" : "CA",
               "types" : [ "administrative_area_level_1", "political" ]
            },
            {
               "long_name" : "United States",
               "short_name" : "US",
               "types" : [ "country", "political" ]
            }
         ],
         "formatted_address" : "Orange County, CA, USA",
         "geometry" : {
            "bounds" : {
               "northeast" : {
                  "lat" : 33.94751189999999,
                  "lng" : -117.4129869
               },
               "southwest" : {
                  "lat" : 33.33399199999999,
                  "lng" : -118.125901
               }
            },
            "location" : {
               "lat" : 33.7174708,
               "lng" : -117.8311428
            },
            "location_type" : "APPROXIMATE",
            "viewport" : {
               "northeast" : {
                  "lat" : 33.94751189999999,
                  "lng" : -117.4129869
               },
               "southwest" : {
                  "lat" : 33.33399199999999,
                  "lng" : -118.125901
               }
            }
         },
         "place_id" : "ChIJz_fVVFyS3IARB9bwj2HDpt4",
         "types" : [ "administrative_area_level_2", "political" ]
      },
      {
         "address_components" : [
            {
               "long_name" : "Los Angeles-Long Beach-Santa Ana, CA",
               "short_name" : "Los Angeles-Long Beach-Santa Ana, CA",
               "types" : [ "political" ]
            },
            {
               "long_name" : "California",
               "short_name" : "CA",
               "types" : [ "administrative_area_level_1", "political" ]
            },
            {
               "long_name" : "United States",
               "short_name" : "US",
               "types" : [ "country", "political" ]
            }
         ],
         "formatted_address" : "Los Angeles-Long Beach-Santa Ana, CA, CA, USA",
         "geometry" : {
            "bounds" : {
               "northeast" : {
                  "lat" : 34.82297399999999,
                  "lng" : -117.4129869
               },
               "southwest" : {
                  "lat" : 32.8005949,
                  "lng" : -118.9448871
               }
            },
            "location" : {
               "lat" : 34.0596149,
               "lng" : -118.1122679
            },
            "location_type" : "APPROXIMATE",
            "viewport" : {
               "northeast" : {
                  "lat" : 34.82297399999999,
                  "lng" : -117.4129869
               },
               "southwest" : {
                  "lat" : 32.8005949,
                  "lng" : -118.9448871
               }
            }
         },
         "place_id" : "ChIJO5W2Si_owoARWUI8pSNYpE8",
         "types" : [ "political" ]
      },
      {
         "address_components" : [
            {
               "long_name" : "Los Angeles Metropolitan Area",
               "short_name" : "Los Angeles Metropolitan Area",
               "types" : [ "political" ]
            },
            {
               "long_name" : "California",
               "short_name" : "CA",
               "types" : [ "administrative_area_level_1", "political" ]
            },
            {
               "long_name" : "United States",
               "short_name" : "US",
               "types" : [ "country", "political" ]
            }
         ],
         "formatted_address" : "Los Angeles Metropolitan Area, CA, USA",
         "geometry" : {
            "bounds" : {
               "northeast" : {
                  "lat" : 34.8231929,
                  "lng" : -117.4129869
               },
               "southwest" : {
                  "lat" : 32.75004,
                  "lng" : -118.9517211
               }
            },
            "location" : {
               "lat" : 34.0522166,
               "lng" : -118.2436619
            },
            "location_type" : "APPROXIMATE",
            "viewport" : {
               "northeast" : {
                  "lat" : 34.8231929,
                  "lng" : -117.4129869
               },
               "southwest" : {
                  "lat" : 32.75004,
                  "lng" : -118.9517211
               }
            }
         },
         "place_id" : "ChIJP__G9Wcx3YARZaspTiCdN6s",
         "types" : [ "political" ]
      },
      {
         "address_components" : [
            {
               "long_name" : "California",
               "short_name" : "CA",
               "types" : [ "administrative_area_level_1", "political" ]
            },
            {
               "long_name" : "United States",
               "short_name" : "US",
               "types" : [ "country", "political" ]
            }
         ],
         "formatted_address" : "California, USA",
         "geometry" : {
            "bounds" : {
               "northeast" : {
                  "lat" : 42.0095169,
                  "lng" : -114.131211
               },
               "southwest" : {
                  "lat" : 32.528832,
                  "lng" : -124.482003
               }
            },
            "location" : {
               "lat" : 36.778261,
               "lng" : -119.4179324
            },
            "location_type" : "APPROXIMATE",
            "viewport" : {
               "northeast" : {
                  "lat" : 42.0095169,
                  "lng" : -114.131211
               },
               "southwest" : {
                  "lat" : 32.528832,
                  "lng" : -124.482003
               }
            }
         },
         "place_id" : "ChIJPV4oX_65j4ARVW8IJ6IJUYs",
         "types" : [ "administrative_area_level_1", "political" ]
      },
      {
         "address_components" : [
            {
               "long_name" : "United States",
               "short_name" : "US",
               "types" : [ "country", "political" ]
            }
         ],
         "formatted_address" : "United States",
         "geometry" : {
            "bounds" : {
               "northeast" : {
                  "lat" : 71.5388001,
                  "lng" : -66.885417
               },
               "southwest" : {
                  "lat" : 18.7763,
                  "lng" : 170.5957
               }
            },
            "location" : {
               "lat" : 37.09024,
               "lng" : -95.712891
            },
            "location_type" : "APPROXIMATE",
            "viewport" : {
               "northeast" : {
                  "lat" : 49.38,
                  "lng" : -66.94
               },
               "southwest" : {
                  "lat" : 25.82,
                  "lng" : -124.39
               }
            }
         },
         "place_id" : "ChIJCzYy5IS16lQRQrfeQ5K5Oxw",
         "types" : [ "country", "political" ]
      }
   ],
   "status" : "OK"
}
