{
   "results" : [
      {
         "address_components" : [
            {
               "long_name" : "Alton Parkway",
               "short_name" : "Alton Pkwy",
               "types" : [ "route" ]
            },
            {
               "long_name" : "Westpark",
               "short_name" : "Westpark",
               "types" : [ "neighborhood", "political" ]
            },
            {
               "long_name" : "Irvine",
               "short_name" : "Irvine",
               "types" : [ "locality", "political" ]
            },
            {
               "long_name" : "Orange County",
               "short_name" : "Orange County",
               "types" : [ "administrative_area_level_2", "political" ]
            },
            {
               "long_name" : "California",
               "short_name" : "CA",
               "types" : [ "administrative_area_level_1", "political" ]
            },
            {
               "long_name" : "United States",
               "short_name" : "US",
               "types" : [ "country", "political" ]
            },
            {
               "long_name" : "92606",
               "short_name" : "92606",
               "types" : [ "postal_code" ]
            }
         ],
         "formatted_address" : "Alton Pkwy, Irvine, CA 92606, USA",
         "geometry" : {
            "bounds" : {
               "northeast" : {
                  "lat" : 33.6841491,
                  "lng" : -117.8176621
               },
               "southwest" : {
                  "lat" : 33.6826871,
                  "lng" : -117.8256556
               }
            },
            "location" : {
               "lat" : 33.6829682,
               "lng" : -117.8218117
            },
            "location_type" : "GEOMETRIC_CENTER",
            "viewport" : {
               "northeast" : {
                  "lat" : 33.6847670802915,
                  "lng" : -117.8176621
               },
               "southwest" : {
                  "lat" : 33.6820691197085,
                  "lng" : -117.8256556
               }
            }
         },
         "place_id" : "ChIJIw5Q1y3c3IARIgxsLkQ4aME",
         "types" : [ "route" ]
      },
      {
         "address_components" : [
            {
               "long_name" : "Alton-Paseo Westpark",
               "short_name" : "Alton-Paseo Westpark",
               "types" : [
                  "bus_station",
                  "establishment",
                  "point_of_interest",
                  "transit_station"
               ]
            },
            {
               "long_name" : "Westpark",
               "short_name" : "Westpark",
               "types" : [ "neighborhood", "political" ]
            },
            {
               "long_name" : "Irvine",
               "short_name" : "Irvine",
               "types" : [ "locality", "political" ]
            },
            {
               "long_name" : "Orange County",
               "short_name" : "Orange County",
               "types" : [ "administrative_area_level_2", "political" ]
            },
            {
               "long_name" : "California",
               "short_name" : "CA",
               "types" : [ "administrative_area_level_1", "political" ]
            },
            {
               "long_name" : "United States",
               "short_name" : "US",
               "types" : [ "country", "political" ]
            },
            {
               "long_name" : "92606",
               "short_name" : "92606",
               "types" : [ "postal_code" ]
            }
         ],
         "formatted_address" : "Alton-Paseo Westpark, Irvine, CA 92606, USA",
         "geometry" : {
            "location" : {
               "lat" : 33.68282,
               "lng" : -117.81832
            },
            "location_type" : "GEOMETRIC_CENTER",
            "viewport" : {
               "northeast" : {
                  "lat" : 33.6841689802915,
                  "lng" : -117.8169710197085
               },
               "southwest" : {
                  "lat" : 33.6814710197085,
                  "lng" : -117.8196689802915
               }
            }
         },
         "place_id" : "ChIJi7JKaTLc3IARCmUIdvAfuXg",
         "types" : [
            "bus_station",
            "establishment",
            "point_of_interest",
            "transit_station"
         ]
      },
      {
         "address_components" : [
            {
               "long_name" : "Westpark",
               "short_name" : "Westpark",
               "types" : [ "neighborhood", "political" ]
            },
            {
               "long_name" : "Irvine",
               "short_name" : "Irvine",
               "types" : [ "locality", "political" ]
            },
            {
               "long_name" : "Orange County",
               "short_name" : "Orange County",
               "types" : [ "administrative_area_level_2", "political" ]
            },
            {
               "long_name" : "California",
               "short_name" : "CA",
               "types" : [ "administrative_area_level_1", "political" ]
            },
            {
               "long_name" : "United States",
               "short_name" : "US",
               "types" : [ "country", "political" ]
            }
         ],
         "formatted_address" : "Westpark, Irvine, CA, USA",
         "geometry" : {
            "bounds" : {
               "northeast" : {
                  "lat" : 33.702739,
                  "lng" : -117.7985869
               },
               "southwest" : {
                  "lat" : 33.67082,
                  "lng" : -117.8356719
               }
            },
            "location" : {
               "lat" : 33.6875331,
               "lng" : -117.8164888
            },
            "location_type" : "APPROXIMATE",
            "viewport" : {
               "northeast" : {
                  "lat" : 33.702739,
                  "lng" : -117.7985869
               },
               "southwest" : {
                  "lat" : 33.67082,
                  "lng" : -117.8356719
               }
            }
         },
         "place_id" : "ChIJ7cySrzHc3IARSHSTK3btySI",
         "types" : [ "neighborhood", "political" ]
      },
      {
         "address_components" : [
            {
               "long_name" : "Irvine",
               "short_name" : "Irvine",
               "types" : [ "locality", "political" ]
            },
            {
               "long_name" : "Orange County",
               "short_name" : "Orange County",
               "types" : [ "administrative_area_level_2", "political" ]
            },
            {
               "long_name" : "California",
               "short_name" : "CA",
               "types" : [ "administrative_area_level_1", "political" ]
            },
            {
               "long_name" : "United States",
               "short_name" : "US",
               "types" : [ "country", "political" ]
            }
         ],
         "formatted_address" : "Irvine, CA, USA",
         "geometry" : {
            "bounds" : {
               "northeast" : {
                  "lat" : 33.7736521,
                  "lng" : -117.6780258
               },
               "southwest" : {
                  "lat" : 33.5993914,
                  "lng" : -117.8687519
               }
            },
            "location" : {
               "lat" : 33.6845673,
               "lng" : -117.8265049
            },
            "location_type" : "APPROXIMATE",
            "viewport" : {
               "northeast" : {
                  "lat" : 33.7736521,
                  "lng" : -117.6780258
               },
               "southwest" : {
                  "lat" : 33.5993914,
                  "lng" : -117.8687519
               }
            }
         },
         "place_id" : "ChIJ40CRaA7d3IAROZpKYHW1eqc",
         "types" : [ "locality", "political" ]
      },
      {
         "address_components" : [
            {
               "long_name" : "92606",
               "short_name" : "92606",
               "types" : [ "postal_code" ]
            },
            {
               "long_name" : "Irvine",
               "short_name" : "Irvine",
               "types" : [ "locality", "political" ]
            },
            {
               "long_name" : "Orange County",
               "short_name" : "Orange County",
               "types" : [ "administrative_area_level_2", "political" ]
            },
            {
               "long_name" : "California",
               "short_name" : "CA",
               "types" : [ "administrative_area_level_1", "political" ]
            },
            {
               "long_name" : "United States",
               "short_name" : "US",
               "types" : [ "country", "political" ]
            }
         ],
         "formatted_address" : "Irvine, CA 92606, USA",
         "geometry" : {
            "bounds" : {
               "northeast" : {
                  "lat" : 33.721677,
                  "lng" : -117.78222
               },
               "southwest" : {
                  "lat" : 33.6807461,
                  "lng" : -117.8556239
               }
            },
            "location" : {
               "lat" : 33.6912614,
               "lng" : -117.8223506
            },
            "location_type" : "APPROXIMATE",
            "viewport" : {
               "northeast" : {
                  "lat" : 33.721677,
                  "lng" : -117.78222
               },
               "southwest" : {
                  "lat" : 33.6807461,
                  "lng" : -117.8556239
               }
            }
         },
         "place_id" : "ChIJRai8Zjzc3IAREGO0zCxl_7Q",
         "types" : [ "postal_code" ]
      },
      {
         "address_components" : [
            {
               "long_name" : "Orange County",
               "short_name" : "Orange County",
               "types" : [ "administrative_area_level_2", "political" ]
            },
            {
               "long_name" : "California",
               "short_name" : "CA",
               "types" : [ "administrative_area_level_1", "political" ]
            },
            {
               "long_name" : "United States",
               "short_name" : "US",
               "types" : [ "country", "political" ]
            }
         ],
         "formatted_address" : "Orange County, CA, USA",
         "geometry" : {
            "bounds" : {
               "northeast" : {
                  "lat" : 33.94751189999999,
                  "lng" : -117.4129869
               },
               "southwest" : {
                  "lat" : 33.33399199999999,
                  "lng" : -118.125901
               }
            },
            "location" : {
               "lat" : 33.7174708,
               "lng" : -117.8311428
            },
            "location_type" : "APPROXIMATE",
            "viewport" : {
               "northeast" : {
                  "lat" : 33.94751189999999,
                  "lng" : -117.4129869
               },
               "southwest" : {
                  "lat" : 33.33399199999999,
                  "lng" : -118.125901
               }
            }
         },
         "place_id" : "ChIJz_fVVFyS3IARB9bwj2HDpt4",
         "types" : [ "administrative_area_level_2", "political" ]
      },
      {
         "address_components" : [
            {
               "long_name" : "Los Angeles-Long Beach-Santa Ana, CA",
               "short_name" : "Los Angeles-Long Beach-Santa Ana, CA",
               "types" : [ "political" ]
            },
            {
               "long_name" : "California",
               "short_name" : "CA",
               "types" : [ "administrative_area_level_1", "political" ]
            },
            {
               "long_name" : "United States",
               "short_name" : "US",
               "types" : [ "country", "political" ]
            }
         ],
         "formatted_address" : "Los Angeles-Long Beach-Santa Ana, CA, CA, USA",
         "geometry" : {
            "bounds" : {
               "northeast" : {
                  "lat" : 34.82297399999999,
                  "lng" : -117.4129869
               },
               "southwest" : {
                  "lat" : 32.8005949,
                  "lng" : -118.9448871
               }
            },
            "location" : {
               "lat" : 34.0596149,
               "lng" : -118.1122679
            },
            "location_type" : "APPROXIMATE",
            "viewport" : {
               "northeast" : {
                  "lat" : 34.82297399999999,
                  "lng" : -117.4129869
               },
               "southwest" : {
                  "lat" : 32.8005949,
                  "lng" : -118.9448871
               }
            }
         },
         "place_id" : "ChIJO5W2Si_owoARWUI8pSNYpE8",
         "types" : [ "political" ]
      },
      {
         "address_components" : [
            {
               "long_name" : "Los Angeles Metropolitan Area",
               "short_name" : "Los Angeles Metropolitan Area",
               "types" : [ "political" ]
            },
            {
               "long_name" : "California",
               "short_name" : "CA",
               "types" : [ "administrative_area_level_1", "political" ]
            },
            {
               "long_name" : "United States",
               "short_name" : "US",
               "types" : [ "country", "political" ]
            }
         ],
         "formatted_address" : "Los Angeles Metropolitan Area, CA, USA",
         "geometry" : {
            "bounds" : {
               "northeast" : {
                  "lat" : 34.8231929,
                  "lng" : -117.4129869
               },
               "southwest" : {
                  "lat" : 32.75004,
                  "lng" : -118.9517211
               }
            },
            "location" : {
               "lat" : 34.0522166,
               "lng" : -118.2436619
            },
            "location_type" : "APPROXIMATE",
            "viewport" : {
               "northeast" : {
                  "lat" : 34.8231929,
                  "lng" : -117.4129869
               },
               "southwest" : {
                  "lat" : 32.75004,
                  "lng" : -118.9517211
               }
            }
         },
         "place_id" : "ChIJP__G9Wcx3YARZaspTiCdN6s",
         "types" : [ "political" ]
      },
      {
         "address_components" : [
            {
               "long_name" : "California",
               "short_name" : "CA",
               "types" : [ "administrative_area_level_1", "political" ]
            },
            {
               "long_name" : "United States",
               "short_name" : "US",
               "types" : [ "country", "political" ]
            }
         ],
         "formatted_address" : "California, USA",
         "geometry" : {
            "bounds" : {
               "northeast" : {
                  "lat" : 42.0095169,
                  "lng" : -114.131211
               },
               "southwest" : {
                  "lat" : 32.528832,
                  "lng" : -124.482003
               }
            },
            "location" : {
               "lat" : 36.778261,
               "lng" : -119.4179324
            },
            "location_type" : "APPROXIMATE",
            "viewport" : {
               "northeast" : {
                  "lat" : 42.0095169,
                  "lng" : -114.131211
               },
               "southwest" : {
                  "lat" : 32.528832,
                  "lng" : -124.482003
               }
            }
         },
         "place_id" : "ChIJPV4oX_65j4ARVW8IJ6IJUYs",
         "types" : [ "administrative_area_level_1", "political" ]
      },
      {
         "address_components" : [
            {
               "long_name" : "United States",
               "short_name" : "US",
               "types" : [ "country", "political" ]
            }
         ],
         "formatted_address" : "United States",
         "geometry" : {
            "bounds" : {
               "northeast" : {
                  "lat" : 71.5388001,
                  "lng" : -66.885417
               },
               "southwest" : {
                  "lat" : 18.7763,
                  "lng" : 170.5957
               }
            },
            "location" : {
               "lat" : 37.09024,
               "lng" : -95.712891
            },
            "location_type" : "APPROXIMATE",
            "viewport" : {
               "northeast" : {
                  "lat" : 49.38,
                  "lng" : -66.94
               },
               "southwest" : {
                  "lat" : 25.82,
                  "lng" : -124.39
               }
            }
         },
         "place_id" : "ChIJCzYy5IS16lQRQrfeQ5K5Oxw",
         "types" : [ "country", "political" ]
      }
   ],
   "status" : "OK"
}
