{
   "results" : [
      {
         "address_components" : [
            {
               "long_name" : "4451-4499",
               "short_name" : "4451-4499",
               "types" : [ "street_number" ]
            },
            {
               "long_name" : "Walnut Avenue",
               "short_name" : "Walnut Ave",
               "types" : [ "route" ]
            },
            {
               "long_name" : "El Camino Real",
               "short_name" : "El Camino Real",
               "types" : [ "neighborhood", "political" ]
            },
            {
               "long_name" : "Irvine",
               "short_name" : "Irvine",
               "types" : [ "locality", "political" ]
            },
            {
               "long_name" : "Orange County",
               "short_name" : "Orange County",
               "types" : [ "administrative_area_level_2", "political" ]
            },
            {
               "long_name" : "California",
               "short_name" : "CA",
               "types" : [ "administrative_area_level_1", "political" ]
            },
            {
               "long_name" : "United States",
               "short_name" : "US",
               "types" : [ "country", "political" ]
            },
            {
               "long_name" : "92604",
               "short_name" : "92604",
               "types" : [ "postal_code" ]
            }
         ],
         "formatted_address" : "4451-4499 Walnut Ave, Irvine, CA 92604, USA",
         "geometry" : {
            "bounds" : {
               "northeast" : {
                  "lat" : 33.700216,
                  "lng" : -117.7800453
               },
               "southwest" : {
                  "lat" : 33.6995507,
                  "lng" : -117.7810026
               }
            },
            "location" : {
               "lat" : 33.6997288,
               "lng" : -117.7802723
            },
            "location_type" : "RANGE_INTERPOLATED",
            "viewport" : {
               "northeast" : {
                  "lat" : 33.7012323302915,
                  "lng" : -117.7791749697085
               },
               "southwest" : {
                  "lat" : 33.6985343697085,
                  "lng" : -117.7818729302915
               }
            }
         },
         "place_id" : "Eis0NDUxLTQ0OTkgV2FsbnV0IEF2ZSwgSXJ2aW5lLCBDQSA5MjYwNCwgVVNB",
         "types" : [ "street_address" ]
      },
      {
         "address_components" : [
            {
               "long_name" : "El Camino Real",
               "short_name" : "El Camino Real",
               "types" : [ "neighborhood", "political" ]
            },
            {
               "long_name" : "Irvine",
               "short_name" : "Irvine",
               "types" : [ "locality", "political" ]
            },
            {
               "long_name" : "Orange County",
               "short_name" : "Orange County",
               "types" : [ "administrative_area_level_2", "political" ]
            },
            {
               "long_name" : "California",
               "short_name" : "CA",
               "types" : [ "administrative_area_level_1", "political" ]
            },
            {
               "long_name" : "United States",
               "short_name" : "US",
               "types" : [ "country", "political" ]
            }
         ],
         "formatted_address" : "El Camino Real, Irvine, CA, USA",
         "geometry" : {
            "bounds" : {
               "northeast" : {
                  "lat" : 33.711011,
                  "lng" : -117.7680859
               },
               "southwest" : {
                  "lat" : 33.68022,
                  "lng" : -117.7985869
               }
            },
            "location" : {
               "lat" : 33.6960922,
               "lng" : -117.7813146
            },
            "location_type" : "APPROXIMATE",
            "viewport" : {
               "northeast" : {
                  "lat" : 33.711011,
                  "lng" : -117.7680859
               },
               "southwest" : {
                  "lat" : 33.68022,
                  "lng" : -117.7985869
               }
            }
         },
         "place_id" : "ChIJY-qAYvjc3IARMujXRBPJfmM",
         "types" : [ "neighborhood", "political" ]
      },
      {
         "address_components" : [
            {
               "long_name" : "Irvine",
               "short_name" : "Irvine",
               "types" : [ "locality", "political" ]
            },
            {
               "long_name" : "Orange County",
               "short_name" : "Orange County",
               "types" : [ "administrative_area_level_2", "political" ]
            },
            {
               "long_name" : "California",
               "short_name" : "CA",
               "types" : [ "administrative_area_level_1", "political" ]
            },
            {
               "long_name" : "United States",
               "short_name" : "US",
               "types" : [ "country", "political" ]
            }
         ],
         "formatted_address" : "Irvine, CA, USA",
         "geometry" : {
            "bounds" : {
               "northeast" : {
                  "lat" : 33.7736521,
                  "lng" : -117.6780258
               },
               "southwest" : {
                  "lat" : 33.5993914,
                  "lng" : -117.8687519
               }
            },
            "location" : {
               "lat" : 33.6845673,
               "lng" : -117.8265049
            },
            "location_type" : "APPROXIMATE",
            "viewport" : {
               "northeast" : {
                  "lat" : 33.7736521,
                  "lng" : -117.6780258
               },
               "southwest" : {
                  "lat" : 33.5993914,
                  "lng" : -117.8687519
               }
            }
         },
         "place_id" : "ChIJ40CRaA7d3IAROZpKYHW1eqc",
         "types" : [ "locality", "political" ]
      },
      {
         "address_components" : [
            {
               "long_name" : "92604",
               "short_name" : "92604",
               "types" : [ "postal_code" ]
            },
            {
               "long_name" : "Irvine",
               "short_name" : "Irvine",
               "types" : [ "locality", "political" ]
            },
            {
               "long_name" : "Orange County",
               "short_name" : "Orange County",
               "types" : [ "administrative_area_level_2", "political" ]
            },
            {
               "long_name" : "California",
               "short_name" : "CA",
               "types" : [ "administrative_area_level_1", "political" ]
            },
            {
               "long_name" : "United States",
               "short_name" : "US",
               "types" : [ "country", "political" ]
            }
         ],
         "formatted_address" : "Irvine, CA 92604, USA",
         "geometry" : {
            "bounds" : {
               "northeast" : {
                  "lat" : 33.7100469,
                  "lng" : -117.7694889
               },
               "southwest" : {
                  "lat" : 33.6694209,
                  "lng" : -117.811295
               }
            },
            "location" : {
               "lat" : 33.6913751,
               "lng" : -117.7901088
            },
            "location_type" : "APPROXIMATE",
            "viewport" : {
               "northeast" : {
                  "lat" : 33.7100469,
                  "lng" : -117.7694889
               },
               "southwest" : {
                  "lat" : 33.6694209,
                  "lng" : -117.811295
               }
            }
         },
         "place_id" : "ChIJA5l6dVTc3IARqKE8a8DXR1A",
         "types" : [ "postal_code" ]
      },
      {
         "address_components" : [
            {
               "long_name" : "Orange County",
               "short_name" : "Orange County",
               "types" : [ "administrative_area_level_2", "political" ]
            },
            {
               "long_name" : "California",
               "short_name" : "CA",
               "types" : [ "administrative_area_level_1", "political" ]
            },
            {
               "long_name" : "United States",
               "short_name" : "US",
               "types" : [ "country", "political" ]
            }
         ],
         "formatted_address" : "Orange County, CA, USA",
         "geometry" : {
            "bounds" : {
               "northeast" : {
                  "lat" : 33.94751189999999,
                  "lng" : -117.4129869
               },
               "southwest" : {
                  "lat" : 33.33399199999999,
                  "lng" : -118.125901
               }
            },
            "location" : {
               "lat" : 33.7174708,
               "lng" : -117.8311428
            },
            "location_type" : "APPROXIMATE",
            "viewport" : {
               "northeast" : {
                  "lat" : 33.94751189999999,
                  "lng" : -117.4129869
               },
               "southwest" : {
                  "lat" : 33.33399199999999,
                  "lng" : -118.125901
               }
            }
         },
         "place_id" : "ChIJz_fVVFyS3IARB9bwj2HDpt4",
         "types" : [ "administrative_area_level_2", "political" ]
      },
      {
         "address_components" : [
            {
               "long_name" : "Los Angeles-Long Beach-Santa Ana, CA",
               "short_name" : "Los Angeles-Long Beach-Santa Ana, CA",
               "types" : [ "political" ]
            },
            {
               "long_name" : "California",
               "short_name" : "CA",
               "types" : [ "administrative_area_level_1", "political" ]
            },
            {
               "long_name" : "United States",
               "short_name" : "US",
               "types" : [ "country", "political" ]
            }
         ],
         "formatted_address" : "Los Angeles-Long Beach-Santa Ana, CA, CA, USA",
         "geometry" : {
            "bounds" : {
               "northeast" : {
                  "lat" : 34.82297399999999,
                  "lng" : -117.4129869
               },
               "southwest" : {
                  "lat" : 32.8005949,
                  "lng" : -118.9448871
               }
            },
            "location" : {
               "lat" : 34.0596149,
               "lng" : -118.1122679
            },
            "location_type" : "APPROXIMATE",
            "viewport" : {
               "northeast" : {
                  "lat" : 34.82297399999999,
                  "lng" : -117.4129869
               },
               "southwest" : {
                  "lat" : 32.8005949,
                  "lng" : -118.9448871
               }
            }
         },
         "place_id" : "ChIJO5W2Si_owoARWUI8pSNYpE8",
         "types" : [ "political" ]
      },
      {
         "address_components" : [
            {
               "long_name" : "Los Angeles Metropolitan Area",
               "short_name" : "Los Angeles Metropolitan Area",
               "types" : [ "political" ]
            },
            {
               "long_name" : "California",
               "short_name" : "CA",
               "types" : [ "administrative_area_level_1", "political" ]
            },
            {
               "long_name" : "United States",
               "short_name" : "US",
               "types" : [ "country", "political" ]
            }
         ],
         "formatted_address" : "Los Angeles Metropolitan Area, CA, USA",
         "geometry" : {
            "bounds" : {
               "northeast" : {
                  "lat" : 34.8231929,
                  "lng" : -117.4129869
               },
               "southwest" : {
                  "lat" : 32.75004,
                  "lng" : -118.9517211
               }
            },
            "location" : {
               "lat" : 34.0522166,
               "lng" : -118.2436619
            },
            "location_type" : "APPROXIMATE",
            "viewport" : {
               "northeast" : {
                  "lat" : 34.8231929,
                  "lng" : -117.4129869
               },
               "southwest" : {
                  "lat" : 32.75004,
                  "lng" : -118.9517211
               }
            }
         },
         "place_id" : "ChIJP__G9Wcx3YARZaspTiCdN6s",
         "types" : [ "political" ]
      },
      {
         "address_components" : [
            {
               "long_name" : "California",
               "short_name" : "CA",
               "types" : [ "administrative_area_level_1", "political" ]
            },
            {
               "long_name" : "United States",
               "short_name" : "US",
               "types" : [ "country", "political" ]
            }
         ],
         "formatted_address" : "California, USA",
         "geometry" : {
            "bounds" : {
               "northeast" : {
                  "lat" : 42.0095169,
                  "lng" : -114.131211
               },
               "southwest" : {
                  "lat" : 32.528832,
                  "lng" : -124.482003
               }
            },
            "location" : {
               "lat" : 36.778261,
               "lng" : -119.4179324
            },
            "location_type" : "APPROXIMATE",
            "viewport" : {
               "northeast" : {
                  "lat" : 42.0095169,
                  "lng" : -114.131211
               },
               "southwest" : {
                  "lat" : 32.528832,
                  "lng" : -124.482003
               }
            }
         },
         "place_id" : "ChIJPV4oX_65j4ARVW8IJ6IJUYs",
         "types" : [ "administrative_area_level_1", "political" ]
      },
      {
         "address_components" : [
            {
               "long_name" : "United States",
               "short_name" : "US",
               "types" : [ "country", "political" ]
            }
         ],
         "formatted_address" : "United States",
         "geometry" : {
            "bounds" : {
               "northeast" : {
                  "lat" : 71.5388001,
                  "lng" : -66.885417
               },
               "southwest" : {
                  "lat" : 18.7763,
                  "lng" : 170.5957
               }
            },
            "location" : {
               "lat" : 37.09024,
               "lng" : -95.712891
            },
            "location_type" : "APPROXIMATE",
            "viewport" : {
               "northeast" : {
                  "lat" : 49.38,
                  "lng" : -66.94
               },
               "southwest" : {
                  "lat" : 25.82,
                  "lng" : -124.39
               }
            }
         },
         "place_id" : "ChIJCzYy5IS16lQRQrfeQ5K5Oxw",
         "types" : [ "country", "political" ]
      }
   ],
   "status" : "OK"
}
